{
"type": "FeatureCollection",
"name": "seattle-m-1965",
"crs": { "type": "name", "properties": { "name": "urn:ogc:def:crs:OGC:1.3:CRS84" } },
"features": [
{ "type": "Feature", "properties": { "State": "Washington", "City": "Seattle", "Year": "1965", "Type": [ null ], "Name": "Atlas Baths", "address": "118  Occidental S", "Unit": null, "Point": "1", "Temp": "0", "Loc": null, "Popular": "0", "Cruisy": "0", "C": "0", "D": "0", "G": "0", "H": "0", "M": "0", "P": "0", "PE": "0", "RT": "0", "S": "0", "SM": "0", "Loc_Notes": null, "Temp_Notes": null, "Notes": null, "addrtype": "street_address", "addrlocat": "RANGE_INTERPOLATED", "long": -122.332578, "lat": 47.601327 }, "geometry": { "type": "Point", "coordinates": [ -122.3325779, 47.601327 ] } },
{ "type": "Feature", "properties": { "State": "Washington", "City": "Seattle", "Year": "1965", "Type": [ null ], "Name": "Casino", "address": "172 S Washington", "Unit": null, "Point": "1", "Temp": "1", "Loc": null, "Popular": "1", "Cruisy": "0", "C": "0", "D": "0", "G": "0", "H": "0", "M": "0", "P": "0", "PE": "0", "RT": "0", "S": "0", "SM": "0", "Loc_Notes": "2nd and Yesler; AKA The Dance or Mrs. P's; admission; byob", "Temp_Notes": "Popular after hours on Friday and Saturday", "Notes": null, "addrtype": "street_address", "addrlocat": "ROOFTOP", "long": -122.331863, "lat": 47.600989 }, "geometry": { "type": "Point", "coordinates": [ -122.3318632, 47.6009886 ] } },
{ "type": "Feature", "properties": { "State": "Washington", "City": "Seattle", "Year": "1965", "Type": [ null ], "Name": "Dave's Baths", "address": "2402 1st Ave", "Unit": null, "Point": "1", "Temp": "0", "Loc": null, "Popular": "0", "Cruisy": "0", "C": "0", "D": "0", "G": "0", "H": "0", "M": "0", "P": "0", "PE": "0", "RT": "0", "S": "0", "SM": "0", "Loc_Notes": null, "Temp_Notes": null, "Notes": null, "addrtype": "street_address", "addrlocat": "RANGE_INTERPOLATED", "long": -122.347839, "lat": 47.614417 }, "geometry": { "type": "Point", "coordinates": [ -122.3478389, 47.6144165 ] } },
{ "type": "Feature", "properties": { "State": "Washington", "City": "Seattle", "Year": "1965", "Type": [ null ], "Name": "Double Header", "address": "407 2nd Ave", "Unit": null, "Point": "1", "Temp": "0", "Loc": null, "Popular": "0", "Cruisy": "0", "C": "0", "D": "0", "G": "0", "H": "0", "M": "0", "P": "0", "PE": "0", "RT": "0", "S": "0", "SM": "0", "Loc_Notes": null, "Temp_Notes": null, "Notes": null, "addrtype": "street_address", "addrlocat": "ROOFTOP", "long": -122.33191, "lat": 47.601152 }, "geometry": { "type": "Point", "coordinates": [ -122.3319104, 47.6011522 ] } },
{ "type": "Feature", "properties": { "State": "Washington", "City": "Seattle", "Year": "1965", "Type": [ null ], "Name": "Golden Horseshoe", "address": "207 2nd Ave S", "Unit": null, "Point": "1", "Temp": "0", "Loc": null, "Popular": "0", "Cruisy": "0", "C": "0", "D": "1", "G": "0", "H": "0", "M": "0", "P": "0", "PE": "0", "RT": "0", "S": "0", "SM": "0", "Loc_Notes": null, "Temp_Notes": null, "Notes": null, "addrtype": "street_address", "addrlocat": "ROOFTOP", "long": -122.331964, "lat": 47.600588 }, "geometry": { "type": "Point", "coordinates": [ -122.3319641, 47.6005882 ] } },
{ "type": "Feature", "properties": { "State": "Washington", "City": "Seattle", "Year": "1965", "Type": [ null ], "Name": "Lamplighter", "address": "817 Pike St", "Unit": null, "Point": "1", "Temp": "0", "Loc": null, "Popular": "0", "Cruisy": "0", "C": "0", "D": "0", "G": "0", "H": "0", "M": "0", "P": "0", "PE": "0", "RT": "0", "S": "0", "SM": "0", "Loc_Notes": "Pike St between 8th and 9th", "Temp_Notes": null, "Notes": null, "addrtype": "street_address", "addrlocat": "RANGE_INTERPOLATED", "long": -122.331821, "lat": 47.611938 }, "geometry": { "type": "Point", "coordinates": [ -122.3318212, 47.6119379 ] } },
{ "type": "Feature", "properties": { "State": "Washington", "City": "Seattle", "Year": "1965", "Type": [ null ], "Name": "LUCKYTAVERN", "address": "159 S Washington St", "Unit": null, "Point": "1", "Temp": "0", "Loc": null, "Popular": "0", "Cruisy": "0", "C": "0", "D": "0", "G": "0", "H": "0", "M": "0", "P": "0", "PE": "0", "RT": "0", "S": "0", "SM": "0", "Loc_Notes": null, "Temp_Notes": null, "Notes": null, "addrtype": "street_address", "addrlocat": "RANGE_INTERPOLATED", "long": -122.332644, "lat": 47.600881 }, "geometry": { "type": "Point", "coordinates": [ -122.3326435, 47.6008811 ] } },
{ "type": "Feature", "properties": { "State": "Washington", "City": "Seattle", "Year": "1965", "Type": [ null ], "Name": "Madison", "address": "922 3rd Ave", "Unit": null, "Point": "1", "Temp": "0", "Loc": null, "Popular": "1", "Cruisy": "0", "C": "0", "D": "1", "G": "1", "H": "0", "M": "0", "P": "0", "PE": "0", "RT": "0", "S": "0", "SM": "0", "Loc_Notes": null, "Temp_Notes": null, "Notes": null, "addrtype": "street_address", "addrlocat": "RANGE_INTERPOLATED", "long": -122.333518, "lat": 47.605074 }, "geometry": { "type": "Point", "coordinates": [ -122.3335175, 47.6050736 ] } },
{ "type": "Feature", "properties": { "State": "Washington", "City": "Seattle", "Year": "1965", "Type": [ null ], "Name": "Mocambo", "address": "203 Yesler", "Unit": null, "Point": "1", "Temp": "0", "Loc": null, "Popular": "1", "Cruisy": "0", "C": "0", "D": "0", "G": "0", "H": "0", "M": "0", "P": "0", "PE": "0", "RT": "0", "S": "0", "SM": "0", "Loc_Notes": "Only liquor bar listed", "Temp_Notes": null, "Notes": null, "addrtype": "street_address", "addrlocat": "RANGE_INTERPOLATED", "long": -122.331117, "lat": 47.601546 }, "geometry": { "type": "Point", "coordinates": [ -122.3311165, 47.6015457 ] } },
{ "type": "Feature", "properties": { "State": "Washington", "City": "Seattle", "Year": "1965", "Type": [ null ], "Name": "Pike Street Tavern", "address": "815  Pike St", "Unit": null, "Point": "1", "Temp": "0", "Loc": null, "Popular": "0", "Cruisy": "0", "C": "0", "D": "0", "G": "0", "H": "0", "M": "0", "P": "0", "PE": "0", "RT": "0", "S": "0", "SM": "0", "Loc_Notes": null, "Temp_Notes": null, "Notes": null, "addrtype": "street_address", "addrlocat": "ROOFTOP", "long": -122.331832, "lat": 47.611925 }, "geometry": { "type": "Point", "coordinates": [ -122.3318317, 47.6119249 ] } },
{ "type": "Feature", "properties": { "State": "Washington", "City": "Seattle", "Year": "1965", "Type": [ null ], "Name": "Six-Fourteen", "address": "614 1st St", "Unit": null, "Point": "1", "Temp": "0", "Loc": null, "Popular": "1", "Cruisy": "0", "C": "0", "D": "1", "G": "0", "H": "0", "M": "0", "P": "0", "PE": "0", "RT": "0", "S": "0", "SM": "0", "Loc_Notes": null, "Temp_Notes": null, "Notes": null, "addrtype": "premise", "addrlocat": "ROOFTOP", "long": -122.33368, "lat": 47.602353 }, "geometry": { "type": "Point", "coordinates": [ -122.3336804, 47.6023525 ] } },
{ "type": "Feature", "properties": { "State": "Washington", "City": "Seattle", "Year": "1965", "Type": [ null ], "Name": "Spag's", "address": "924 Pine St", "Unit": null, "Point": "1", "Temp": "0", "Loc": null, "Popular": "0", "Cruisy": "0", "C": "0", "D": "0", "G": "0", "H": "0", "M": "0", "P": "0", "PE": "0", "RT": "0", "S": "0", "SM": "0", "Loc_Notes": "Pine and Terry", "Temp_Notes": null, "Notes": null, "addrtype": "street_address", "addrlocat": "RANGE_INTERPOLATED", "long": -122.331554, "lat": 47.614242 }, "geometry": { "type": "Point", "coordinates": [ -122.3315543, 47.6142418 ] } }
]
}
