{
"type": "FeatureCollection",
"name": "seattle-m-1975",
"crs": { "type": "name", "properties": { "name": "urn:ogc:def:crs:OGC:1.3:CRS84" } },
"features": [
{ "type": "Feature", "properties": { "State": "Washington", "City": "Seattle", "Year": "1975", "Type": null, "Name": "Adult Book Store", "address": "1415 1st Ave", "Unit": null, "Point": "1", "Temp": "0", "Loc": "0", "Popular": "0", "AH": "0", "B": "0", "BA": "0", "Cruisy": "0", "C": "0", "D": "0", "E": "0", "FFA": "0", "G": "0", "H": "0", "HIP": "0", "HOT": "0", "M": "0", "MCC": "0", "P": "0", "PE": "0", "R": "0", "RT": "0", "S": "0", "SM": "0", "W": "0", "YC": "0", "Loc_Notes": null, "Temp_Notes": null, "Notes": null, "addrtype": "street_address", "addrlocat": "ROOFTOP", "long": -122.33978, "lat": 47.608213 }, "geometry": { "type": "Point", "coordinates": [ -122.3397798, 47.6082134 ] } },
{ "type": "Feature", "properties": { "State": "Washington", "City": "Seattle", "Year": "1975", "Type": null, "Name": "Atlas Books", "address": "1318 2nd Ave", "Unit": null, "Point": "1", "Temp": "0", "Loc": "1", "Popular": "1", "AH": "0", "B": "0", "BA": "0", "Cruisy": "0", "C": "0", "D": "0", "E": "0", "FFA": "0", "G": "0", "H": "0", "HIP": "0", "HOT": "0", "M": "0", "MCC": "0", "P": "0", "PE": "0", "R": "0", "RT": "0", "S": "0", "SM": "0", "W": "0", "YC": "0", "Loc_Notes": "4th floor", "Temp_Notes": null, "Notes": null, "addrtype": "street_address", "addrlocat": "RANGE_INTERPOLATED", "long": -122.337261, "lat": 47.607486 }, "geometry": { "type": "Point", "coordinates": [ -122.3372607, 47.6074856 ] } },
{ "type": "Feature", "properties": { "State": "Washington", "City": "Seattle", "Year": "1975", "Type": null, "Name": "Blue Moon", "address": "712 NE 45th", "Unit": null, "Point": "1", "Temp": "0", "Loc": "0", "Popular": "0", "AH": "0", "B": "0", "BA": "0", "Cruisy": "0", "C": "0", "D": "0", "E": "0", "FFA": "0", "G": "0", "H": "0", "HIP": "0", "HOT": "0", "M": "1", "MCC": "0", "P": "0", "PE": "0", "R": "0", "RT": "0", "S": "0", "SM": "0", "W": "0", "YC": "1", "Loc_Notes": null, "Temp_Notes": null, "Notes": null, "addrtype": "premise", "addrlocat": "ROOFTOP", "long": -122.320031, "lat": 47.661472 }, "geometry": { "type": "Point", "coordinates": [ -122.3200307, 47.6614719 ] } },
{ "type": "Feature", "properties": { "State": "Washington", "City": "Seattle", "Year": "1975", "Type": null, "Name": "Columbus", "address": "167 S Washington St", "Unit": null, "Point": "1", "Temp": "0", "Loc": "0", "Popular": "0", "AH": "0", "B": "0", "BA": "0", "Cruisy": "0", "C": "0", "D": "0", "E": "0", "FFA": "0", "G": "0", "H": "0", "HIP": "0", "HOT": "0", "M": "0", "MCC": "0", "P": "0", "PE": "0", "R": "0", "RT": "1", "S": "0", "SM": "0", "W": "0", "YC": "0", "Loc_Notes": null, "Temp_Notes": null, "Notes": null, "addrtype": "street_address", "addrlocat": "ROOFTOP", "long": -122.331963, "lat": 47.600707 }, "geometry": { "type": "Point", "coordinates": [ -122.3319634, 47.6007072 ] } },
{ "type": "Feature", "properties": { "State": "Washington", "City": "Seattle", "Year": "1975", "Type": null, "Name": "Dave's Baths", "address": "2402 1st Ave", "Unit": null, "Point": "1", "Temp": "0", "Loc": "0", "Popular": "1", "AH": "0", "B": "0", "BA": "0", "Cruisy": "0", "C": "0", "D": "0", "E": "0", "FFA": "0", "G": "0", "H": "0", "HIP": "0", "HOT": "0", "M": "0", "MCC": "0", "P": "0", "PE": "0", "R": "0", "RT": "0", "S": "0", "SM": "0", "W": "0", "YC": "0", "Loc_Notes": null, "Temp_Notes": null, "Notes": null, "addrtype": "street_address", "addrlocat": "RANGE_INTERPOLATED", "long": -122.347839, "lat": 47.614417 }, "geometry": { "type": "Point", "coordinates": [ -122.3478389, 47.6144165 ] } },
{ "type": "Feature", "properties": { "State": "Washington", "City": "Seattle", "Year": "1975", "Type": null, "Name": "Doll House", "address": "119 Yesler Way", "Unit": null, "Point": "1", "Temp": "0", "Loc": "0", "Popular": "0", "AH": "0", "B": "0", "BA": "0", "Cruisy": "0", "C": "0", "D": "1", "E": "0", "FFA": "0", "G": "1", "H": "0", "HIP": "0", "HOT": "0", "M": "0", "MCC": "0", "P": "0", "PE": "0", "R": "0", "RT": "0", "S": "0", "SM": "0", "W": "0", "YC": "0", "Loc_Notes": "Some G; go-go boys", "Temp_Notes": null, "Notes": null, "addrtype": "street_address", "addrlocat": "ROOFTOP", "long": -122.333208, "lat": 47.601541 }, "geometry": { "type": "Point", "coordinates": [ -122.3332076, 47.6015413 ] } },
{ "type": "Feature", "properties": { "State": "Washington", "City": "Seattle", "Year": "1975", "Type": null, "Name": "Double hEader", "address": "407 2nd Ave", "Unit": null, "Point": "1", "Temp": "0", "Loc": "0", "Popular": "0", "AH": "0", "B": "0", "BA": "0", "Cruisy": "0", "C": "0", "D": "0", "E": "0", "FFA": "0", "G": "0", "H": "0", "HIP": "0", "HOT": "0", "M": "1", "MCC": "0", "P": "0", "PE": "0", "R": "0", "RT": "1", "S": "0", "SM": "0", "W": "0", "YC": "0", "Loc_Notes": null, "Temp_Notes": null, "Notes": null, "addrtype": "street_address", "addrlocat": "ROOFTOP", "long": -122.33191, "lat": 47.601152 }, "geometry": { "type": "Point", "coordinates": [ -122.3319104, 47.6011522 ] } },
{ "type": "Feature", "properties": { "State": "Washington", "City": "Seattle", "Year": "1975", "Type": null, "Name": "Eleven Eleven Tavern", "address": "1111 E Pike St", "Unit": null, "Point": "1", "Temp": "0", "Loc": "0", "Popular": "0", "AH": "0", "B": "0", "BA": "0", "Cruisy": "0", "C": "0", "D": "1", "E": "0", "FFA": "0", "G": "0", "H": "0", "HIP": "0", "HOT": "0", "M": "0", "MCC": "0", "P": "0", "PE": "0", "R": "0", "RT": "0", "S": "0", "SM": "0", "W": "0", "YC": "0", "Loc_Notes": null, "Temp_Notes": null, "Notes": null, "addrtype": "premise", "addrlocat": "ROOFTOP", "long": -122.317564, "lat": 47.613937 }, "geometry": { "type": "Point", "coordinates": [ -122.3175637, 47.6139373 ] } },
{ "type": "Feature", "properties": { "State": "Washington", "City": "Seattle", "Year": "1975", "Type": null, "Name": "Golden Horshoe", "address": "207 2nd Ave", "Unit": null, "Point": "1", "Temp": "0", "Loc": "0", "Popular": "1", "AH": "0", "B": "0", "BA": "0", "Cruisy": "0", "C": "0", "D": "1", "E": "0", "FFA": "0", "G": "0", "H": "0", "HIP": "1", "HOT": "0", "M": "0", "MCC": "0", "P": "0", "PE": "0", "R": "0", "RT": "0", "S": "0", "SM": "0", "W": "0", "YC": "1", "Loc_Notes": null, "Temp_Notes": null, "Notes": null, "addrtype": "street_address", "addrlocat": "ROOFTOP", "long": -122.331964, "lat": 47.600588 }, "geometry": { "type": "Point", "coordinates": [ -122.3319641, 47.6005882 ] } },
{ "type": "Feature", "properties": { "State": "Washington", "City": "Seattle", "Year": "1975", "Type": null, "Name": "Johnny's Handlebar", "address": "2018 1st Ave", "Unit": null, "Point": "1", "Temp": "0", "Loc": "0", "Popular": "0", "AH": "0", "B": "0", "BA": "0", "Cruisy": "0", "C": "0", "D": "0", "E": "0", "FFA": "0", "G": "0", "H": "0", "HIP": "0", "HOT": "0", "M": "0", "MCC": "0", "P": "0", "PE": "0", "R": "0", "RT": "0", "S": "0", "SM": "0", "W": "0", "YC": "0", "Loc_Notes": null, "Temp_Notes": null, "Notes": null, "addrtype": "premise", "addrlocat": "ROOFTOP", "long": -122.343011, "lat": 47.611601 }, "geometry": { "type": "Point", "coordinates": [ -122.3430113, 47.611601 ] } },
{ "type": "Feature", "properties": { "State": "Washington", "City": "Seattle", "Year": "1975", "Type": null, "Name": "M.C.C.", "address": "128 16th Ave E", "Unit": null, "Point": "1", "Temp": "0", "Loc": "0", "Popular": "1", "AH": "0", "B": "0", "BA": "0", "Cruisy": "0", "C": "0", "D": "0", "E": "0", "FFA": "0", "G": "0", "H": "0", "HIP": "0", "HOT": "0", "M": "0", "MCC": "0", "P": "0", "PE": "0", "R": "0", "RT": "0", "S": "0", "SM": "1", "W": "1", "YC": "0", "Loc_Notes": null, "Temp_Notes": null, "Notes": null, "addrtype": "street_address", "addrlocat": "ROOFTOP", "long": -122.311051, "lat": 47.619424 }, "geometry": { "type": "Point", "coordinates": [ -122.3110514, 47.6194235 ] } },
{ "type": "Feature", "properties": { "State": "Washington", "City": "Seattle", "Year": "1975", "Type": null, "Name": "Mike's Pike St Tavern", "address": "815 Pike St", "Unit": null, "Point": "1", "Temp": "0", "Loc": "0", "Popular": "0", "AH": "0", "B": "0", "BA": "0", "Cruisy": "0", "C": "0", "D": "0", "E": "0", "FFA": "0", "G": "0", "H": "0", "HIP": "0", "HOT": "0", "M": "0", "MCC": "0", "P": "0", "PE": "0", "R": "0", "RT": "0", "S": "0", "SM": "0", "W": "0", "YC": "0", "Loc_Notes": null, "Temp_Notes": null, "Notes": null, "addrtype": "street_address", "addrlocat": "ROOFTOP", "long": -122.331832, "lat": 47.611925 }, "geometry": { "type": "Point", "coordinates": [ -122.3318317, 47.6119249 ] } },
{ "type": "Feature", "properties": { "State": "Washington", "City": "Seattle", "Year": "1975", "Type": null, "Name": "Mocambo", "address": "203 Yesler Way", "Unit": null, "Point": "1", "Temp": "0", "Loc": "0", "Popular": "1", "AH": "0", "B": "0", "BA": "0", "Cruisy": "0", "C": "0", "D": "0", "E": "0", "FFA": "0", "G": "0", "H": "0", "HIP": "0", "HOT": "0", "M": "0", "MCC": "0", "P": "0", "PE": "0", "R": "1", "RT": "0", "S": "0", "SM": "0", "W": "0", "YC": "0", "Loc_Notes": "liquor", "Temp_Notes": null, "Notes": null, "addrtype": "street_address", "addrlocat": "RANGE_INTERPOLATED", "long": -122.331117, "lat": 47.601546 }, "geometry": { "type": "Point", "coordinates": [ -122.3311165, 47.6015457 ] } },
{ "type": "Feature", "properties": { "State": "Washington", "City": "Seattle", "Year": "1975", "Type": null, "Name": "Mother Morgan's Gumbo Factory", "address": "431 15th Ave E", "Unit": null, "Point": "1", "Temp": "0", "Loc": "0", "Popular": "0", "AH": "0", "B": "0", "BA": "0", "Cruisy": "0", "C": "0", "D": "0", "E": "0", "FFA": "0", "G": "0", "H": "0", "HIP": "1", "HOT": "0", "M": "1", "MCC": "0", "P": "0", "PE": "0", "R": "1", "RT": "0", "S": "0", "SM": "0", "W": "0", "YC": "0", "Loc_Notes": "5-12pm close Sun and Mon", "Temp_Notes": null, "Notes": null, "addrtype": "street_address", "addrlocat": "ROOFTOP", "long": -122.312812, "lat": 47.622943 }, "geometry": { "type": "Point", "coordinates": [ -122.312812, 47.6229432 ] } },
{ "type": "Feature", "properties": { "State": "Washington", "City": "Seattle", "Year": "1975", "Type": null, "Name": "Nine Twenty Two Tavern", "address": "922 3rd Ave", "Unit": null, "Point": "1", "Temp": "0", "Loc": "0", "Popular": "0", "AH": "0", "B": "0", "BA": "0", "Cruisy": "0", "C": "0", "D": "0", "E": "0", "FFA": "0", "G": "0", "H": "0", "HIP": "0", "HOT": "0", "M": "0", "MCC": "0", "P": "0", "PE": "0", "R": "0", "RT": "0", "S": "0", "SM": "0", "W": "0", "YC": "0", "Loc_Notes": null, "Temp_Notes": null, "Notes": null, "addrtype": "street_address", "addrlocat": "RANGE_INTERPOLATED", "long": -122.333518, "lat": 47.605074 }, "geometry": { "type": "Point", "coordinates": [ -122.3335175, 47.6050736 ] } },
{ "type": "Feature", "properties": { "State": "Washington", "City": "Seattle", "Year": "1975", "Type": null, "Name": "Shelly's Leg", "address": "77 S Main St", "Unit": null, "Point": "1", "Temp": "0", "Loc": "0", "Popular": "1", "AH": "0", "B": "0", "BA": "0", "Cruisy": "0", "C": "0", "D": "1", "E": "0", "FFA": "0", "G": "0", "H": "0", "HIP": "0", "HOT": "0", "M": "0", "MCC": "0", "P": "0", "PE": "0", "R": "0", "RT": "0", "S": "0", "SM": "0", "W": "0", "YC": "1", "Loc_Notes": "At foot of Main St near Alaskan Way; Disco", "Temp_Notes": null, "Notes": null, "addrtype": "street_address", "addrlocat": "ROOFTOP", "long": -122.3352, "lat": 47.599883 }, "geometry": { "type": "Point", "coordinates": [ -122.3351999, 47.599883 ] } },
{ "type": "Feature", "properties": { "State": "Washington", "City": "Seattle", "Year": "1975", "Type": null, "Name": "Silver Sliper", "address": "210 S Jackson St", "Unit": null, "Point": "1", "Temp": "0", "Loc": "0", "Popular": "1", "AH": "0", "B": "0", "BA": "0", "Cruisy": "0", "C": "0", "D": "1", "E": "0", "FFA": "0", "G": "1", "H": "0", "HIP": "0", "HOT": "0", "M": "0", "MCC": "0", "P": "0", "PE": "0", "R": "0", "RT": "0", "S": "0", "SM": "0", "W": "0", "YC": "0", "Loc_Notes": null, "Temp_Notes": null, "Notes": null, "addrtype": "street_address", "addrlocat": "ROOFTOP", "long": -122.331027, "lat": 47.599418 }, "geometry": { "type": "Point", "coordinates": [ -122.3310265, 47.5994175 ] } },
{ "type": "Feature", "properties": { "State": "Washington", "City": "Seattle", "Year": "1975", "Type": null, "Name": "Silver Star", "address": "173 S Washington St", "Unit": null, "Point": "1", "Temp": "0", "Loc": "0", "Popular": "0", "AH": "0", "B": "0", "BA": "0", "Cruisy": "0", "C": "0", "D": "0", "E": "0", "FFA": "0", "G": "0", "H": "0", "HIP": "0", "HOT": "0", "M": "0", "MCC": "0", "P": "0", "PE": "0", "R": "0", "RT": "0", "S": "0", "SM": "0", "W": "0", "YC": "0", "Loc_Notes": null, "Temp_Notes": null, "Notes": null, "addrtype": "premise", "addrlocat": "ROOFTOP", "long": -122.331819, "lat": 47.600713 }, "geometry": { "type": "Point", "coordinates": [ -122.3318191, 47.6007134 ] } },
{ "type": "Feature", "properties": { "State": "Washington", "City": "Seattle", "Year": "1975", "Type": null, "Name": "Six Eleven Club", "address": "611 2nd Ave", "Unit": null, "Point": "1", "Temp": "0", "Loc": "0", "Popular": "1", "AH": "0", "B": "0", "BA": "0", "Cruisy": "0", "C": "0", "D": "0", "E": "0", "FFA": "0", "G": "0", "H": "0", "HIP": "0", "HOT": "0", "M": "0", "MCC": "0", "P": "0", "PE": "0", "R": "0", "RT": "0", "S": "0", "SM": "0", "W": "0", "YC": "0", "Loc_Notes": null, "Temp_Notes": null, "Notes": null, "addrtype": "street_address", "addrlocat": "ROOFTOP", "long": -122.332997, "lat": 47.602556 }, "geometry": { "type": "Point", "coordinates": [ -122.3329967, 47.6025555 ] } },
{ "type": "Feature", "properties": { "State": "Washington", "City": "Seattle", "Year": "1975", "Type": null, "Name": "Southend Baths", "address": "115 1st Ave S", "Unit": null, "Point": "1", "Temp": "0", "Loc": "0", "Popular": "0", "AH": "0", "B": "0", "BA": "0", "Cruisy": "0", "C": "0", "D": "0", "E": "0", "FFA": "0", "G": "0", "H": "0", "HIP": "0", "HOT": "0", "M": "0", "MCC": "0", "P": "0", "PE": "0", "R": "0", "RT": "0", "S": "0", "SM": "0", "W": "0", "YC": "0", "Loc_Notes": "1st Ave near Pioneer Square", "Temp_Notes": null, "Notes": null, "addrtype": "street_address", "addrlocat": "ROOFTOP", "long": -122.334529, "lat": 47.601174 }, "geometry": { "type": "Point", "coordinates": [ -122.3345288, 47.601174 ] } },
{ "type": "Feature", "properties": { "State": "Washington", "City": "Seattle", "Year": "1975", "Type": null, "Name": "Spag's Tavern", "address": "924 Pine St", "Unit": null, "Point": "1", "Temp": "1", "Loc": "0", "Popular": "1", "AH": "0", "B": "0", "BA": "0", "Cruisy": "0", "C": "0", "D": "0", "E": "0", "FFA": "0", "G": "0", "H": "0", "HIP": "0", "HOT": "0", "M": "0", "MCC": "0", "P": "0", "PE": "0", "R": "0", "RT": "0", "S": "0", "SM": "0", "W": "0", "YC": "0", "Loc_Notes": "Pine & Terry Sts", "Temp_Notes": null, "Notes": null, "addrtype": "street_address", "addrlocat": "RANGE_INTERPOLATED", "long": -122.331554, "lat": 47.614242 }, "geometry": { "type": "Point", "coordinates": [ -122.3315543, 47.6142418 ] } },
{ "type": "Feature", "properties": { "State": "Washington", "City": "Seattle", "Year": "1975", "Type": null, "Name": "Sultan's Lavender Theatre & Bookstore", "address": "1313 1st Ave", "Unit": null, "Point": "1", "Temp": "0", "Loc": "0", "Popular": "0", "AH": "0", "B": "0", "BA": "0", "Cruisy": "0", "C": "0", "D": "0", "E": "0", "FFA": "0", "G": "0", "H": "0", "HIP": "0", "HOT": "0", "M": "0", "MCC": "0", "P": "0", "PE": "0", "R": "0", "RT": "0", "S": "0", "SM": "0", "W": "0", "YC": "0", "Loc_Notes": null, "Temp_Notes": null, "Notes": null, "addrtype": "street_address", "addrlocat": "RANGE_INTERPOLATED", "long": -122.33887, "lat": 47.607048 }, "geometry": { "type": "Point", "coordinates": [ -122.3388702, 47.6070483 ] } },
{ "type": "Feature", "properties": { "State": "Washington", "City": "Seattle", "Year": "1975", "Type": null, "Name": "Terrace Room", "address": "411 University St", "Unit": null, "Point": "1", "Temp": "0", "Loc": "0", "Popular": "0", "AH": "0", "B": "0", "BA": "0", "Cruisy": "0", "C": "0", "D": "0", "E": "0", "FFA": "0", "G": "0", "H": "0", "HIP": "0", "HOT": "0", "M": "1", "MCC": "0", "P": "0", "PE": "1", "R": "0", "RT": "0", "S": "0", "SM": "0", "W": "0", "YC": "0", "Loc_Notes": "4th & Seneca; Olympic Hotel", "Temp_Notes": null, "Notes": null, "addrtype": "street_address", "addrlocat": "ROOFTOP", "long": -122.333984, "lat": 47.608106 }, "geometry": { "type": "Point", "coordinates": [ -122.3339844, 47.6081064 ] } },
{ "type": "Feature", "properties": { "State": "Washington", "City": "Seattle", "Year": "1975", "Type": null, "Name": "Thirteen Coins", "address": "125 Boren N", "Unit": null, "Point": "1", "Temp": "0", "Loc": "0", "Popular": "0", "AH": "1", "B": "0", "BA": "0", "Cruisy": "0", "C": "1", "D": "0", "E": "0", "FFA": "0", "G": "0", "H": "0", "HIP": "0", "HOT": "0", "M": "1", "MCC": "0", "P": "0", "PE": "0", "R": "1", "RT": "0", "S": "0", "SM": "0", "W": "0", "YC": "0", "Loc_Notes": null, "Temp_Notes": null, "Notes": null, "addrtype": "premise", "addrlocat": "ROOFTOP", "long": -122.336331, "lat": 47.619048 }, "geometry": { "type": "Point", "coordinates": [ -122.3363314, 47.6190483 ] } },
{ "type": "Feature", "properties": { "State": "Washington", "City": "Seattle", "Year": "1975", "Type": null, "Name": "Tip Inn", "address": "1926 9th Ave", "Unit": null, "Point": "1", "Temp": "0", "Loc": "0", "Popular": "0", "AH": "0", "B": "0", "BA": "0", "Cruisy": "0", "C": "0", "D": "0", "E": "0", "FFA": "0", "G": "0", "H": "0", "HIP": "0", "HOT": "0", "M": "1", "MCC": "0", "P": "0", "PE": "1", "R": "0", "RT": "0", "S": "0", "SM": "0", "W": "0", "YC": "0", "Loc_Notes": null, "Temp_Notes": null, "Notes": null, "addrtype": "street_address", "addrlocat": "RANGE_INTERPOLATED", "long": -122.335215, "lat": 47.616346 }, "geometry": { "type": "Point", "coordinates": [ -122.3352152, 47.6163457 ] } },
{ "type": "Feature", "properties": { "State": "Washington", "City": "Seattle", "Year": "1975", "Type": null, "Name": "Trojan Shield", "address": "117 Occidental Ave S", "Unit": null, "Point": "1", "Temp": "0", "Loc": "0", "Popular": "0", "AH": "1", "B": "0", "BA": "0", "Cruisy": "0", "C": "1", "D": "1", "E": "0", "FFA": "0", "G": "0", "H": "0", "HIP": "0", "HOT": "0", "M": "0", "MCC": "0", "P": "0", "PE": "0", "R": "1", "RT": "0", "S": "1", "SM": "0", "W": "0", "YC": "0", "Loc_Notes": "liquor", "Temp_Notes": null, "Notes": null, "addrtype": "street_address", "addrlocat": "RANGE_INTERPOLATED", "long": -122.333283, "lat": 47.601294 }, "geometry": { "type": "Point", "coordinates": [ -122.3332834, 47.6012944 ] } },
{ "type": "Feature", "properties": { "State": "Washington", "City": "Seattle", "Year": "1975", "Type": null, "Name": "Victrola Tavern", "address": "86 Pike Place", "Unit": null, "Point": "1", "Temp": "0", "Loc": "0", "Popular": "0", "AH": "0", "B": "0", "BA": "0", "Cruisy": "0", "C": "0", "D": "0", "E": "0", "FFA": "0", "G": "0", "H": "0", "HIP": "1", "HOT": "0", "M": "1", "MCC": "0", "P": "0", "PE": "0", "R": "0", "RT": "0", "S": "0", "SM": "0", "W": "0", "YC": "1", "Loc_Notes": "Pike Place Public Market", "Temp_Notes": null, "Notes": null, "addrtype": "street_address", "addrlocat": "RANGE_INTERPOLATED", "long": -122.340455, "lat": 47.608787 }, "geometry": { "type": "Point", "coordinates": [ -122.340455, 47.6087869 ] } },
{ "type": "Feature", "properties": { "State": "Washington", "City": "Seattle", "Year": "1975", "Type": "Cruisy Area", "Name": "1st Ave Movie Arcades", "address": [ null ], "Unit": null, "Point": "0", "Temp": "0", "Loc": "0", "Popular": "0", "AH": "0", "B": "0", "BA": "0", "Cruisy": "1", "C": "0", "D": "0", "E": "0", "FFA": "0", "G": "0", "H": "0", "HIP": "1", "HOT": "0", "M": "0", "MCC": "0", "P": "0", "PE": "0", "R": "0", "RT": "0", "S": "0", "SM": "0", "W": "0", "YC": "0", "Loc_Notes": null, "Temp_Notes": null, "Notes": null, "addrtype": "locality", "addrlocat": "APPROXIMATE", "long": -122.332071, "lat": 47.60621 }, "geometry": { "type": "Point", "coordinates": [ -122.3320708, 47.6062095 ] } },
{ "type": "Feature", "properties": { "State": "Washington", "City": "Seattle", "Year": "1975", "Type": "Cruisy Area", "Name": "Loading dock opposite Ferry Terminal", "address": "800 Alaskan Way", "Unit": null, "Point": "0", "Temp": "0", "Loc": "0", "Popular": "0", "AH": "0", "B": "0", "BA": "0", "Cruisy": "1", "C": "0", "D": "0", "E": "0", "FFA": "0", "G": "0", "H": "0", "HIP": "0", "HOT": "0", "M": "0", "MCC": "0", "P": "0", "PE": "0", "R": "0", "RT": "0", "S": "0", "SM": "0", "W": "0", "YC": "0", "Loc_Notes": null, "Temp_Notes": null, "Notes": null, "addrtype": "street_address", "addrlocat": "RANGE_INTERPOLATED", "long": -122.337312, "lat": 47.602469 }, "geometry": { "type": "Point", "coordinates": [ -122.3373121, 47.6024691 ] } },
{ "type": "Feature", "properties": { "State": "Washington", "City": "Seattle", "Year": "1975", "Type": "Cruisy Area", "Name": "Madison Beach", "address": "1900 43rd Ave E", "Unit": null, "Point": "0", "Temp": "0", "Loc": "0", "Popular": "0", "AH": "0", "B": "0", "BA": "0", "Cruisy": "1", "C": "0", "D": "0", "E": "0", "FFA": "0", "G": "0", "H": "0", "HIP": "0", "HOT": "0", "M": "0", "MCC": "0", "P": "0", "PE": "0", "R": "0", "RT": "0", "S": "0", "SM": "0", "W": "0", "YC": "0", "Loc_Notes": null, "Temp_Notes": null, "Notes": null, "addrtype": "premise", "addrlocat": "ROOFTOP", "long": -122.276775, "lat": 47.636108 }, "geometry": { "type": "Point", "coordinates": [ -122.2767749, 47.6361077 ] } },
{ "type": "Feature", "properties": { "State": "Washington", "City": "Seattle", "Year": "1975", "Type": "Cruisy Area", "Name": "Second & Yesler", "address": "173 Yesler Way", "Unit": null, "Point": "0", "Temp": "0", "Loc": "0", "Popular": "0", "AH": "0", "B": "0", "BA": "0", "Cruisy": "1", "C": "0", "D": "0", "E": "0", "FFA": "0", "G": "0", "H": "0", "HIP": "0", "HOT": "0", "M": "0", "MCC": "0", "P": "0", "PE": "0", "R": "0", "RT": "0", "S": "0", "SM": "0", "W": "0", "YC": "0", "Loc_Notes": null, "Temp_Notes": null, "Notes": null, "addrtype": "street_address", "addrlocat": "RANGE_INTERPOLATED", "long": -122.331999, "lat": 47.601716 }, "geometry": { "type": "Point", "coordinates": [ -122.3319992, 47.601716 ] } },
{ "type": "Feature", "properties": { "State": "Washington", "City": "Seattle", "Year": "1975", "Type": "Cruisy Area", "Name": "Smith Hall", "address": "1911 Skagit Lane", "Unit": null, "Point": "0", "Temp": "0", "Loc": "0", "Popular": "0", "AH": "0", "B": "0", "BA": "0", "Cruisy": "1", "C": "0", "D": "0", "E": "0", "FFA": "0", "G": "0", "H": "0", "HIP": "1", "HOT": "0", "M": "0", "MCC": "0", "P": "0", "PE": "0", "R": "0", "RT": "0", "S": "0", "SM": "0", "W": "0", "YC": "0", "Loc_Notes": null, "Temp_Notes": null, "Notes": null, "addrtype": "premise", "addrlocat": "ROOFTOP", "long": -122.30736, "lat": 47.656491 }, "geometry": { "type": "Point", "coordinates": [ -122.3073599, 47.6564909 ] } },
{ "type": "Feature", "properties": { "State": "Washington", "City": "Seattle", "Year": "1975", "Type": "Cruisy Area", "Name": "Volunteer Park", "address": "1247 15th Ave E", "Unit": null, "Point": "0", "Temp": "0", "Loc": "0", "Popular": "0", "AH": "0", "B": "0", "BA": "0", "Cruisy": "1", "C": "0", "D": "0", "E": "0", "FFA": "0", "G": "0", "H": "0", "HIP": "1", "HOT": "0", "M": "0", "MCC": "0", "P": "0", "PE": "0", "R": "0", "RT": "0", "S": "0", "SM": "0", "W": "0", "YC": "0", "Loc_Notes": null, "Temp_Notes": null, "Notes": null, "addrtype": "premise", "addrlocat": "ROOFTOP", "long": -122.314574, "lat": 47.629025 }, "geometry": { "type": "Point", "coordinates": [ -122.3145744, 47.6290253 ] } }
]
}
